{"stop":{"id":"8501008","name":"Genève","x":"499969","y":"118468","lon":6.142435,"lat":46.210228},"connections":[{"time":"2021-02-05 18:59:00","*G":"IR","*L":"15","type":"express_train","line":"IR 15","operator":"SBB","number":"IR 2535","color":"f00~fff~","type_name":"Railway","terminal":{"id":"8505000","name":"Luzern","x":666224,"y":211384,"lon":8.310185,"lat":47.050174},"arr_delay":"+0","dep_delay":"+0","subsequent_stops":[{"id":"8501030","name":"Nyon","x":507483,"y":137716,"lon":6.235963,"lat":46.38443,"arr":"2021-02-05 19:13:00","dep":"2021-02-05 19:13:00","arr_delay":"+0","dep_delay":"+1"},{"id":"8501037","name":"Morges","x":527498,"y":151526,"lon":6.493958,"lat":46.511111,"arr":"2021-02-05 19:30:00","dep":"2021-02-05 19:30:00","arr_delay":"+1","dep_delay":"+1"},{"id":"8501120","name":"Lausanne","x":537875,"y":152042,"lon":6.629087,"lat":46.516795,"arr":"2021-02-05 19:42:00","dep":"2021-02-05 19:44:00","arr_delay":"+0","dep_delay":"+0"},{"id":"8504014","name":"Palézieux","x":553919,"y":154785,"lon":6.837873,"lat":46.542766,"arr":"2021-02-05 19:59:00","dep":"2021-02-05 20:00:00","arr_delay":"+0","dep_delay":"+1"},{"id":"8504023","name":"Romont FR","x":559703,"y":171502,"lon":6.911814,"lat":46.693515,"arr":"2021-02-05 20:15:00","dep":"2021-02-05 20:16:00","arr_delay":"+0","dep_delay":"+0"},{"id":"8504100","name":"Fribourg/Freiburg","x":578047,"y":183595,"lon":7.151052,"lat":46.803151,"arr":"2021-02-05 20:33:00","dep":"2021-02-05 20:34:00","arr_delay":"+0","dep_delay":"+1"},{"id":"8507000","name":"Bern","x":600038,"y":199750,"lon":7.439136,"lat":46.948832,"arr":"2021-02-05 20:56:00","dep":"2021-02-05 21:00:00","arr_delay":"+0","dep_delay":"+0"},{"id":"0000132","name":"Bahn-2000-Strecke","x":619000,"y":227300,"lon":7.689367,"lat":47.196371,"arr_delay":"+0","dep_delay":"+0"},{"id":"8502001","name":"Zofingen","x":638164,"y":237585,"lon":7.943128,"lat":47.288051,"arr":"2021-02-05 21:28:00","dep":"2021-02-05 21:29:00","arr_delay":"+0","dep_delay":"+0"},{"id":"8502007","name":"Sursee","x":649981,"y":224636,"lon":8.097894,"lat":47.170794,"arr":"2021-02-05 21:41:00","dep":"2021-02-05 21:42:00","arr_delay":"+0","dep_delay":"+1"},{"id":"8505000","name":"Luzern","x":666224,"y":211384,"lon":8.310185,"lat":47.050174,"arr":"2021-02-05 22:01:00","arr_delay":"+0"}]},{"time":"2021-02-05 19:00:00","*G":"S","*L":"L1","type":"strain","line":"SL1","operator":"SBB","number":"SL1 23385","color":"039~fff~","type_name":"S-Train","terminal":{"id":"8501023","name":"Coppet","x":503661,"y":130324,"lon":6.187819,"lat":46.317405},"arr_delay":"+0","dep_delay":"+0","subsequent_stops":[{"id":"8516283","name":"Genève-Sécheron","x":500154,"y":119824,"lon":6.144542,"lat":46.222452,"arr":"2021-02-05 19:02:00","dep":"2021-02-05 19:02:00","arr_delay":"+0","dep_delay":"+0"},{"id":"8501020","name":"Chambésy","x":500400,"y":121878,"lon":6.147292,"lat":46.240963,"arr":"2021-02-05 19:05:00","dep":"2021-02-05 19:06:00","arr_delay":"+0","dep_delay":"+0"},{"id":"8501011","name":"Les Tuileries","x":500419,"y":122878,"lon":6.147325,"lat":46.24996,"arr":"2021-02-05 19:07:00","dep":"2021-02-05 19:07:00","arr_delay":"+1","dep_delay":"+2"},{"id":"8501021","name":"Genthod-Bellevue","x":500942,"y":123625,"lon":6.153947,"lat":46.256756,"arr":"2021-02-05 19:09:00","dep":"2021-02-05 19:10:00","arr_delay":"+2","dep_delay":"+2"},{"id":"8501012","name":"Creux-de-Genthod","x":501522,"y":124397,"lon":6.161304,"lat":46.263785,"arr":"2021-02-05 19:13:00","dep":"2021-02-05 19:14:00","arr_delay":"+0","dep_delay":"+0"},{"id":"8501022","name":"Versoix","x":501892,"y":126165,"lon":6.165731,"lat":46.279741,"arr":"2021-02-05 19:16:00","dep":"2021-02-05 19:16:00","arr_delay":"+0","dep_delay":"+1"},{"id":"8501013","name":"Pont-Céard","x":501669,"y":127022,"lon":6.162657,"lat":46.287417,"arr":"2021-02-05 19:17:00","dep":"2021-02-05 19:17:00","arr_delay":"+1","dep_delay":"+2"},{"id":"8501014","name":"Mies","x":502073,"y":128248,"lon":6.167641,"lat":46.298503,"arr":"2021-02-05 19:21:00","dep":"2021-02-05 19:22:00","arr_delay":"+0","dep_delay":"+0"},{"id":"8501015","name":"Tannay","x":503127,"y":129249,"lon":6.18111,"lat":46.307659,"arr":"2021-02-05 19:23:00","dep":"2021-02-05 19:23:00","arr_delay":"+0","dep_delay":"+1"},{"id":"8501023","name":"Coppet","x":503661,"y":130324,"lon":6.187819,"lat":46.317405,"arr":"2021-02-05 19:25:00","arr_delay":"+0"}]},{"time":"2021-02-05 19:02:00","*G":"S","*L":"L1","type":"strain","line":"SL1","operator":"SBB","number":"SL1 23338","color":"039~fff~","type_name":"S-Train","terminal":{"id":"8774549","name":"Annemasse","x":507201,"y":117144,"lon":6.236394,"lat":46.199355},"subsequent_stops":[{"id":"8516155","name":"Lancy-Pont-Rouge","x":498573,"y":115793,"lon":6.124929,"lat":46.18596,"arr":"2021-02-05 19:07:00","dep":"2021-02-05 19:07:00"},{"id":"8517142","name":"Lancy-Bachet","x":498892,"y":114497,"lon":6.12934,"lat":46.174351,"arr":"2021-02-05 19:09:00","dep":"2021-02-05 19:10:00"},{"id":"8516272","name":"Genève-Champel","x":500789,"y":116451,"lon":6.153486,"lat":46.192208,"arr":"2021-02-05 19:13:00","dep":"2021-02-05 19:13:00"},{"id":"8516273","name":"Genève-Eaux-Vives","x":501814,"y":117463,"lon":6.166549,"lat":46.201461,"arr":"2021-02-05 19:16:00","dep":"2021-02-05 19:17:00"},{"id":"8516274","name":"Chêne-Bourg","x":504180,"y":116886,"lon":6.197316,"lat":46.196612,"arr":"2021-02-05 19:19:00","dep":"2021-02-05 19:19:00"},{"id":"8774549","name":"Annemasse","x":507201,"y":117144,"lon":6.236394,"lat":46.199355,"arr":"2021-02-05 19:25:00"}]},{"time":"2021-02-05 19:02:00","*G":"S","*L":"L6","type":"strain","line":"SL6","operator":"SBB","number":"SL6 96758","color":"039~fff~","type_name":"S-Train","terminal":{"id":"8774538","name":"Pougny-Chancy","x":485845,"y":111438,"lon":5.961173,"lat":46.144755},"subsequent_stops":[{"id":"8501007","name":"Vernier","x":496242,"y":119699,"lon":6.093877,"lat":46.220736,"arr":"2021-02-05 19:06:00","dep":"2021-02-05 19:06:00"},{"id":"8501006","name":"Meyrin","x":494934,"y":119901,"lon":6.076882,"lat":46.22235,"arr":"2021-02-05 19:07:00","dep":"2021-02-05 19:07:00"},{"id":"8501000","name":"Zimeysa","x":494090,"y":119794,"lon":6.06597,"lat":46.221256,"arr":"2021-02-05 19:09:00","dep":"2021-02-05 19:09:00"},{"id":"8501003","name":"Satigny","x":491891,"y":119053,"lon":6.037647,"lat":46.214241,"arr":"2021-02-05 19:14:00","dep":"2021-02-05 19:14:00"},{"id":"8501002","name":"Russin","x":490325,"y":116210,"lon":6.018024,"lat":46.188418,"arr":"2021-02-05 19:17:00","dep":"2021-02-05 19:17:00"},{"id":"8774538","name":"Pougny-Chancy","x":485845,"y":111438,"lon":5.961173,"lat":46.144755,"arr":"2021-02-05 19:25:00"}]},{"time":"2021-02-05 19:04:00","*G":"IR","*L":"15","type":"express_train","line":"IR 15","operator":"SBB","number":"IR 2528","color":"f00~fff~","type_name":"Railway","terminal":{"id":"8501026","name":"Genève-Aéroport","x":497660,"y":120989,"lon":6.111968,"lat":46.232556},"arr_delay":"+0","dep_delay":"+0","subsequent_stops":[{"id":"8501026","name":"Genève-Aéroport","x":497660,"y":120989,"lon":6.111968,"lat":46.232556,"arr":"2021-02-05 19:11:00","arr_delay":"+0"}]},{"time":"2021-02-05 19:11:00","*G":"IR","*L":"90","type":"express_train","line":"IR 90","operator":"SBB","number":"IR 1833","color":"f00~fff~","type_name":"Railway","terminal":{"id":"8501609","name":"Brig","x":642319,"y":129928,"lon":7.988089,"lat":46.319416},"arr_delay":"+0","dep_delay":"+0","subsequent_stops":[{"id":"8501120","name":"Lausanne","x":537875,"y":152042,"lon":6.629087,"lat":46.516795,"arr":"2021-02-05 19:48:00","dep":"2021-02-05 19:50:00","arr_delay":"+0","dep_delay":"+0"},{"id":"8501200","name":"Vevey","x":554279,"y":145915,"lon":6.843443,"lat":46.463002,"arr":"2021-02-05 20:03:00","dep":"2021-02-05 20:05:00","arr_delay":"+0","dep_delay":"+0"},{"id":"8501300","name":"Montreux","x":559405,"y":142864,"lon":6.910438,"lat":46.435887,"arr":"2021-02-05 20:10:00","dep":"2021-02-05 20:12:00","arr_delay":"+1","dep_delay":"+1"},{"id":"8501400","name":"Aigle","x":563416,"y":129606,"lon":6.96367,"lat":46.316856,"arr":"2021-02-05 20:21:00","dep":"2021-02-05 20:22:00","arr_delay":"+1","dep_delay":"+1"},{"id":"8501403","name":"St-Maurice","x":566309,"y":118419,"lon":7.002036,"lat":46.216375,"arr":"2021-02-05 20:31:00","dep":"2021-02-05 20:32:00","arr_delay":"+1","dep_delay":"+1"},{"id":"8501500","name":"Martigny","x":572200,"y":106100,"lon":7.079108,"lat":46.105829,"arr":"2021-02-05 20:42:00","dep":"2021-02-05 20:43:00","arr_delay":"+1","dep_delay":"+1"},{"id":"8501506","name":"Sion","x":593870,"y":119571,"lon":7.359183,"lat":46.227553,"arr":"2021-02-05 20:56:00","dep":"2021-02-05 20:57:00","arr_delay":"+1","dep_delay":"+1"},{"id":"8501509","name":"Sierre/Siders","x":607258,"y":126750,"lon":7.532824,"lat":46.292121,"arr":"2021-02-05 21:07:00","dep":"2021-02-05 21:08:00","arr_delay":"+0","dep_delay":"+0"},{"id":"8501605","name":"Visp","x":634122,"y":127053,"lon":7.881455,"lat":46.29402,"arr":"2021-02-05 21:23:00","dep":"2021-02-05 21:25:00","arr_delay":"+0","dep_delay":"+0"},{"id":"8501609","name":"Brig","x":642319,"y":129928,"lon":7.988089,"lat":46.319416,"arr":"2021-02-05 21:32:00","arr_delay":"+0"}]},{"time":"2021-02-05 19:15:00","*G":"IC","*L":"5","type":"express_train","line":"IC 5","operator":"SBB","number":"IC 537","color":"f00~fff~","type_name":"Railway","terminal":{"id":"8503000","name":"Zürich HB","x":683212,"y":248030,"lon":8.540502,"lat":47.377847},"arr_delay":"+0","dep_delay":"+0","subsequent_stops":[{"id":"8501037","name":"Morges","x":527498,"y":151526,"lon":6.493958,"lat":46.511111,"arr":"2021-02-05 19:41:00","dep":"2021-02-05 19:42:00","arr_delay":"+0","dep_delay":"+0"},{"id":"8504200","name":"Yverdon-les-Bains","x":539084,"y":181463,"lon":6.640943,"lat":46.78155,"arr":"2021-02-05 20:05:00","dep":"2021-02-05 20:06:00","arr_delay":"+0","dep_delay":"+1"},{"id":"8504221","name":"Neuchâtel","x":561747,"y":205197,"lon":6.935713,"lat":46.996727,"arr":"2021-02-05 20:24:00","dep":"2021-02-05 20:26:00","arr_delay":"+1","dep_delay":"+1"},{"id":"8504300","name":"Biel/Bienne","x":585151,"y":220232,"lon":7.242918,"lat":47.132902,"arr":"2021-02-05 20:43:00","dep":"2021-02-05 20:46:00","arr_delay":"+0","dep_delay":"+0"},{"id":"8500207","name":"Solothurn","x":607884,"y":228144,"lon":7.542692,"lat":47.204189,"arr":"2021-02-05 20:59:00","dep":"2021-02-05 21:01:00","arr_delay":"+0","dep_delay":"+0"},{"id":"0000132","name":"Bahn-2000-Strecke","x":619000,"y":227300,"lon":7.689367,"lat":47.196371,"arr_delay":"+0","dep_delay":"+0"},{"id":"8500218","name":"Olten","x":635442,"y":244671,"lon":7.907707,"lat":47.351936,"arr":"2021-02-05 21:18:00","dep":"2021-02-05 21:20:00","arr_delay":"+0","dep_delay":"+0"},{"id":"8502113","name":"Aarau","x":646256,"y":249129,"lon":8.051284,"lat":47.391361,"arr":"2021-02-05 21:29:00","dep":"2021-02-05 21:31:00","arr_delay":"+0","dep_delay":"+0"},{"id":"8503000","name":"Zürich HB","x":683212,"y":248030,"lon":8.540502,"lat":47.377847,"arr":"2021-02-05 21:56:00","arr_delay":"+0"}]},{"time":"2021-02-05 19:15:00","*G":"S","*L":"L2","type":"strain","line":"SL2","operator":"SBB","number":"SL2 23435","color":"039~fff~","type_name":"S-Train","terminal":{"id":"8501023","name":"Coppet","x":503661,"y":130324,"lon":6.187819,"lat":46.317405},"dep_delay":"+0","subsequent_stops":[{"id":"8516283","name":"Genève-Sécheron","x":500154,"y":119824,"lon":6.144542,"lat":46.222452,"arr":"2021-02-05 19:17:00","dep":"2021-02-05 19:17:00","arr_delay":"+0","dep_delay":"+0"},{"id":"8501020","name":"Chambésy","x":500400,"y":121878,"lon":6.147292,"lat":46.240963,"arr":"2021-02-05 19:20:00","dep":"2021-02-05 19:21:00","arr_delay":"+0","dep_delay":"+0"},{"id":"8501011","name":"Les Tuileries","x":500419,"y":122878,"lon":6.147325,"lat":46.24996,"arr":"2021-02-05 19:22:00","dep":"2021-02-05 19:22:00","arr_delay":"+1","dep_delay":"+2"},{"id":"8501021","name":"Genthod-Bellevue","x":500942,"y":123625,"lon":6.153947,"lat":46.256756,"arr":"2021-02-05 19:24:00","dep":"2021-02-05 19:25:00","arr_delay":"+2","dep_delay":"+2"},{"id":"8501012","name":"Creux-de-Genthod","x":501522,"y":124397,"lon":6.161304,"lat":46.263785,"arr":"2021-02-05 19:28:00","dep":"2021-02-05 19:29:00","arr_delay":"+0","dep_delay":"+0"},{"id":"8501022","name":"Versoix","x":501892,"y":126165,"lon":6.165731,"lat":46.279741,"arr":"2021-02-05 19:31:00","dep":"2021-02-05 19:31:00","arr_delay":"+0","dep_delay":"+1"},{"id":"8501013","name":"Pont-Céard","x":501669,"y":127022,"lon":6.162657,"lat":46.287417,"arr":"2021-02-05 19:32:00","dep":"2021-02-05 19:32:00","arr_delay":"+1","dep_delay":"+2"},{"id":"8501014","name":"Mies","x":502073,"y":128248,"lon":6.167641,"lat":46.298503,"arr":"2021-02-05 19:36:00","dep":"2021-02-05 19:37:00","arr_delay":"+0","dep_delay":"+0"},{"id":"8501015","name":"Tannay","x":503127,"y":129249,"lon":6.18111,"lat":46.307659,"arr":"2021-02-05 19:38:00","dep":"2021-02-05 19:38:00","arr_delay":"+0","dep_delay":"+1"},{"id":"8501023","name":"Coppet","x":503661,"y":130324,"lon":6.187819,"lat":46.317405,"arr":"2021-02-05 19:40:00","arr_delay":"+0"}]},{"time":"2021-02-05 19:17:00","*G":"RE","type":"express_train","line":"RE","operator":"SBB","number":"RE 18430","color":"f00~fff~","type_name":"Railway","terminal":{"id":"8774549","name":"Annemasse","x":507201,"y":117144,"lon":6.236394,"lat":46.199355},"arr_delay":"+0","dep_delay":"+0","subsequent_stops":[{"id":"8516155","name":"Lancy-Pont-Rouge","x":498573,"y":115793,"lon":6.124929,"lat":46.18596,"arr":"2021-02-05 19:22:00","dep":"2021-02-05 19:22:00","arr_delay":"+0","dep_delay":"+0"},{"id":"8517142","name":"Lancy-Bachet","x":498892,"y":114497,"lon":6.12934,"lat":46.174351,"arr":"2021-02-05 19:24:00","dep":"2021-02-05 19:25:00","arr_delay":"+0","dep_delay":"+0"},{"id":"8516272","name":"Genève-Champel","x":500789,"y":116451,"lon":6.153486,"lat":46.192208,"arr":"2021-02-05 19:28:00","dep":"2021-02-05 19:28:00","arr_delay":"+0","dep_delay":"+1"},{"id":"8516273","name":"Genève-Eaux-Vives","x":501814,"y":117463,"lon":6.166549,"lat":46.201461,"arr":"2021-02-05 19:31:00","dep":"2021-02-05 19:32:00","arr_delay":"+0","dep_delay":"+0"},{"id":"8516274","name":"Chêne-Bourg","x":504180,"y":116886,"lon":6.197316,"lat":46.196612,"arr":"2021-02-05 19:34:00","dep":"2021-02-05 19:34:00","arr_delay":"+0","dep_delay":"+1"},{"id":"8774549","name":"Annemasse","x":507201,"y":117144,"lon":6.236394,"lat":46.199355,"arr":"2021-02-05 19:40:00","arr_delay":"+0"}]},{"time":"2021-02-05 19:18:00","*G":"S","*L":"L5","type":"strain","line":"SL5","operator":"SBB","number":"SL5 23060","color":"039~fff~","type_name":"S-Train","terminal":{"id":"8501001","name":"La Plaine","x":488912,"y":115153,"lon":5.999977,"lat":46.17868},"dep_delay":"+0","subsequent_stops":[{"id":"8501007","name":"Vernier","x":496242,"y":119699,"lon":6.093877,"lat":46.220736,"arr":"2021-02-05 19:22:00","dep":"2021-02-05 19:23:00","arr_delay":"+0","dep_delay":"+0"},{"id":"8501006","name":"Meyrin","x":494934,"y":119901,"lon":6.076882,"lat":46.22235,"arr":"2021-02-05 19:24:00","dep":"2021-02-05 19:24:00","arr_delay":"+1","dep_delay":"+1"},{"id":"8501000","name":"Zimeysa","x":494090,"y":119794,"lon":6.06597,"lat":46.221256,"arr":"2021-02-05 19:26:00","dep":"2021-02-05 19:26:00","arr_delay":"+1","dep_delay":"+1"},{"id":"8501003","name":"Satigny","x":491891,"y":119053,"lon":6.037647,"lat":46.214241,"arr":"2021-02-05 19:29:00","dep":"2021-02-05 19:30:00","arr_delay":"+0","dep_delay":"+0"},{"id":"8501002","name":"Russin","x":490325,"y":116210,"lon":6.018024,"lat":46.188418,"arr":"2021-02-05 19:33:00","dep":"2021-02-05 19:33:00","arr_delay":"+0","dep_delay":"+1"},{"id":"8501001","name":"La Plaine","x":488912,"y":115153,"lon":5.999977,"lat":46.17868,"arr":"2021-02-05 19:37:00","arr_delay":"+0"}]},{"time":"2021-02-05 19:20:00","*G":"IC","*L":"1","type":"express_train","line":"IC 1","operator":"SBB","number":"IC 726","color":"f00~fff~","type_name":"Railway","terminal":{"id":"8501026","name":"Genève-Aéroport","x":497660,"y":120989,"lon":6.111968,"lat":46.232556},"arr_delay":"+0","dep_delay":"+0","subsequent_stops":[{"id":"8501026","name":"Genève-Aéroport","x":497660,"y":120989,"lon":6.111968,"lat":46.232556,"arr":"2021-02-05 19:27:00","arr_delay":"+0"}]},{"time":"2021-02-05 19:20:00","*G":"RE","type":"express_train","line":"RE","operator":"SBB","number":"RE 18483","color":"f00~fff~","type_name":"Railway","terminal":{"id":"8501403","name":"St-Maurice","x":566309,"y":118419,"lon":7.002036,"lat":46.216375},"arr_delay":"+0","dep_delay":"+0","subsequent_stops":[{"id":"8501023","name":"Coppet","x":503661,"y":130324,"lon":6.187819,"lat":46.317405,"arr":"2021-02-05 19:29:00","dep":"2021-02-05 19:30:00","arr_delay":"+0","dep_delay":"+0"},{"id":"8501030","name":"Nyon","x":507483,"y":137716,"lon":6.235963,"lat":46.38443,"arr":"2021-02-05 19:35:00","dep":"2021-02-05 19:36:00","arr_delay":"+0","dep_delay":"+0"},{"id":"8501031","name":"Gland","x":510093,"y":141631,"lon":6.269128,"lat":46.419998,"arr":"2021-02-05 19:39:00","dep":"2021-02-05 19:40:00","arr_delay":"+0","dep_delay":"+0"},{"id":"8501033","name":"Rolle","x":515331,"y":146309,"lon":6.3364,"lat":46.462757,"arr":"2021-02-05 19:44:00","dep":"2021-02-05 19:45:00","arr_delay":"+0","dep_delay":"+0"},{"id":"8501035","name":"Allaman","x":520212,"y":147689,"lon":6.399696,"lat":46.475769,"arr":"2021-02-05 19:48:00","dep":"2021-02-05 19:49:00","arr_delay":"+0","dep_delay":"+0"},{"id":"8501037","name":"Morges","x":527498,"y":151526,"lon":6.493958,"lat":46.511111,"arr":"2021-02-05 19:54:00","dep":"2021-02-05 19:55:00","arr_delay":"+0","dep_delay":"+0"},{"id":"8501118","name":"Renens VD","x":534051,"y":154334,"lon":6.578933,"lat":46.537046,"arr":"2021-02-05 20:01:00","dep":"2021-02-05 20:02:00","arr_delay":"+0","dep_delay":"+0"},{"id":"8501120","name":"Lausanne","x":537875,"y":152042,"lon":6.629087,"lat":46.516795,"arr":"2021-02-05 20:08:00","dep":"2021-02-05 20:11:00","arr_delay":"+0","dep_delay":"+0"},{"id":"8501200","name":"Vevey","x":554279,"y":145915,"lon":6.843443,"lat":46.463002,"arr":"2021-02-05 20:25:00","dep":"2021-02-05 20:26:00","arr_delay":"+0","dep_delay":"+0"},{"id":"8501300","name":"Montreux","x":559405,"y":142864,"lon":6.910438,"lat":46.435887,"arr":"2021-02-05 20:31:00","dep":"2021-02-05 20:32:00","arr_delay":"+0","dep_delay":"+0"},{"id":"8501303","name":"Villeneuve VD","x":560650,"y":138686,"lon":6.926991,"lat":46.398378,"arr":"2021-02-05 20:36:00","dep":"2021-02-05 20:36:00","arr_delay":"+0","dep_delay":"+1"},{"id":"8501400","name":"Aigle","x":563416,"y":129606,"lon":6.96367,"lat":46.316856,"arr":"2021-02-05 20:42:00","dep":"2021-02-05 20:43:00","arr_delay":"+0","dep_delay":"+0"},{"id":"8501402","name":"Bex","x":566224,"y":122321,"lon":7.000653,"lat":46.251471,"arr":"2021-02-05 20:48:00","dep":"2021-02-05 20:49:00","arr_delay":"+0","dep_delay":"+0"},{"id":"8501403","name":"St-Maurice","x":566309,"y":118419,"lon":7.002036,"lat":46.216375,"arr":"2021-02-05 20:53:00","arr_delay":"+0"}]},{"time":"2021-02-05 19:29:00","*G":"IR","*L":"90","type":"express_train","line":"IR 90","operator":"SBB","number":"IR 1735","color":"f00~fff~","type_name":"Railway","terminal":{"id":"8501609","name":"Brig","x":642319,"y":129928,"lon":7.988089,"lat":46.319416},"arr_delay":"+0","dep_delay":"+0","subsequent_stops":[{"id":"8501030","name":"Nyon","x":507483,"y":137716,"lon":6.235963,"lat":46.38443,"arr":"2021-02-05 19:43:00","dep":"2021-02-05 19:44:00","arr_delay":"+0","dep_delay":"+1"},{"id":"8501037","name":"Morges","x":527498,"y":151526,"lon":6.493958,"lat":46.511111,"arr":"2021-02-05 19:59:00","dep":"2021-02-05 20:00:00","arr_delay":"+1","dep_delay":"+1"},{"id":"8501120","name":"Lausanne","x":537875,"y":152042,"lon":6.629087,"lat":46.516795,"arr":"2021-02-05 20:12:00","dep":"2021-02-05 20:21:00","arr_delay":"+0","dep_delay":"+0"},{"id":"8501200","name":"Vevey","x":554279,"y":145915,"lon":6.843443,"lat":46.463002,"arr":"2021-02-05 20:35:00","dep":"2021-02-05 20:36:00","arr_delay":"+0","dep_delay":"+0"},{"id":"8501300","name":"Montreux","x":559405,"y":142864,"lon":6.910438,"lat":46.435887,"arr":"2021-02-05 20:41:00","dep":"2021-02-05 20:43:00","arr_delay":"+0","dep_delay":"+0"},{"id":"8501400","name":"Aigle","x":563416,"y":129606,"lon":6.96367,"lat":46.316856,"arr":"2021-02-05 20:52:00","dep":"2021-02-05 20:53:00","arr_delay":"+0","dep_delay":"+1"},{"id":"8501500","name":"Martigny","x":572200,"y":106100,"lon":7.079108,"lat":46.105829,"arr":"2021-02-05 21:09:00","dep":"2021-02-05 21:10:00","arr_delay":"+1","dep_delay":"+1"},{"id":"8501506","name":"Sion","x":593870,"y":119571,"lon":7.359183,"lat":46.227553,"arr":"2021-02-05 21:24:00","dep":"2021-02-05 21:25:00","arr_delay":"+1","dep_delay":"+1"},{"id":"8501509","name":"Sierre/Siders","x":607258,"y":126750,"lon":7.532824,"lat":46.292121,"arr":"2021-02-05 21:34:00","dep":"2021-02-05 21:35:00","arr_delay":"+1","dep_delay":"+1"},{"id":"8501601","name":"Leuk","x":615891,"y":128929,"lon":7.644928,"lat":46.311574,"arr":"2021-02-05 21:41:00","dep":"2021-02-05 21:42:00","arr_delay":"+1","dep_delay":"+1"},{"id":"8501605","name":"Visp","x":634122,"y":127053,"lon":7.881455,"lat":46.29402,"arr":"2021-02-05 21:53:00","dep":"2021-02-05 21:55:00","arr_delay":"+0","dep_delay":"+0"},{"id":"8501609","name":"Brig","x":642319,"y":129928,"lon":7.988089,"lat":46.319416,"arr":"2021-02-05 22:02:00","arr_delay":"+0"}]},{"time":"2021-02-05 19:30:00","*G":"S","*L":"L3","type":"strain","line":"SL3","operator":"SBB","number":"SL3 23489","color":"039~fff~","type_name":"S-Train","terminal":{"id":"8501023","name":"Coppet","x":503661,"y":130324,"lon":6.187819,"lat":46.317405},"arr_delay":"+0","dep_delay":"+0","subsequent_stops":[{"id":"8516283","name":"Genève-Sécheron","x":500154,"y":119824,"lon":6.144542,"lat":46.222452,"arr":"2021-02-05 19:32:00","dep":"2021-02-05 19:32:00","arr_delay":"+0","dep_delay":"+0"},{"id":"8501020","name":"Chambésy","x":500400,"y":121878,"lon":6.147292,"lat":46.240963,"arr":"2021-02-05 19:35:00","dep":"2021-02-05 19:36:00","arr_delay":"+0","dep_delay":"+0"},{"id":"8501011","name":"Les Tuileries","x":500419,"y":122878,"lon":6.147325,"lat":46.24996,"arr":"2021-02-05 19:37:00","dep":"2021-02-05 19:37:00","arr_delay":"+1","dep_delay":"+2"},{"id":"8501021","name":"Genthod-Bellevue","x":500942,"y":123625,"lon":6.153947,"lat":46.256756,"arr":"2021-02-05 19:39:00","dep":"2021-02-05 19:40:00","arr_delay":"+2","dep_delay":"+2"},{"id":"8501012","name":"Creux-de-Genthod","x":501522,"y":124397,"lon":6.161304,"lat":46.263785,"arr":"2021-02-05 19:43:00","dep":"2021-02-05 19:44:00","arr_delay":"+0","dep_delay":"+0"},{"id":"8501022","name":"Versoix","x":501892,"y":126165,"lon":6.165731,"lat":46.279741,"arr":"2021-02-05 19:46:00","dep":"2021-02-05 19:46:00","arr_delay":"+0","dep_delay":"+1"},{"id":"8501013","name":"Pont-Céard","x":501669,"y":127022,"lon":6.162657,"lat":46.287417,"arr":"2021-02-05 19:47:00","dep":"2021-02-05 19:47:00","arr_delay":"+1","dep_delay":"+2"},{"id":"8501014","name":"Mies","x":502073,"y":128248,"lon":6.167641,"lat":46.298503,"arr":"2021-02-05 19:51:00","dep":"2021-02-05 19:52:00","arr_delay":"+0","dep_delay":"+0"},{"id":"8501015","name":"Tannay","x":503127,"y":129249,"lon":6.18111,"lat":46.307659,"arr":"2021-02-05 19:53:00","dep":"2021-02-05 19:53:00","arr_delay":"+0","dep_delay":"+1"},{"id":"8501023","name":"Coppet","x":503661,"y":130324,"lon":6.187819,"lat":46.317405,"arr":"2021-02-05 19:55:00","arr_delay":"+0"}]},{"time":"2021-02-05 19:30:00","*G":"TER","type":"train","line":"TER","operator":"SBB","number":"TER 96578","color":"039~fff~","type_name":"Railway","terminal":{"id":"8774500","name":"Bellegarde (Ain)","x":475321,"y":107886,"lon":5.825947,"lat":46.110945},"subsequent_stops":[{"id":"8774500","name":"Bellegarde (Ain)","x":475321,"y":107886,"lon":5.825947,"lat":46.110945,"arr":"2021-02-05 19:58:00"}]},{"time":"2021-02-05 19:32:00","*G":"S","*L":"L1","type":"strain","line":"SL1","operator":"SBB","number":"SL1 23324","color":"039~fff~","type_name":"S-Train","terminal":{"id":"8774549","name":"Annemasse","x":507201,"y":117144,"lon":6.236394,"lat":46.199355},"subsequent_stops":[{"id":"8516155","name":"Lancy-Pont-Rouge","x":498573,"y":115793,"lon":6.124929,"lat":46.18596,"arr":"2021-02-05 19:37:00","dep":"2021-02-05 19:37:00"},{"id":"8517142","name":"Lancy-Bachet","x":498892,"y":114497,"lon":6.12934,"lat":46.174351,"arr":"2021-02-05 19:39:00","dep":"2021-02-05 19:40:00"},{"id":"8516272","name":"Genève-Champel","x":500789,"y":116451,"lon":6.153486,"lat":46.192208,"arr":"2021-02-05 19:43:00","dep":"2021-02-05 19:43:00"},{"id":"8516273","name":"Genève-Eaux-Vives","x":501814,"y":117463,"lon":6.166549,"lat":46.201461,"arr":"2021-02-05 19:46:00","dep":"2021-02-05 19:47:00"},{"id":"8516274","name":"Chêne-Bourg","x":504180,"y":116886,"lon":6.197316,"lat":46.196612,"arr":"2021-02-05 19:49:00","dep":"2021-02-05 19:49:00"},{"id":"8774549","name":"Annemasse","x":507201,"y":117144,"lon":6.236394,"lat":46.199355,"arr":"2021-02-05 19:55:00"}]},{"time":"2021-02-05 19:34:00","*G":"IR","*L":"90","type":"express_train","line":"IR 90","operator":"SBB","number":"IR 1728","color":"f00~fff~","type_name":"Railway","terminal":{"id":"8501026","name":"Genève-Aéroport","x":497660,"y":120989,"lon":6.111968,"lat":46.232556},"arr_delay":"+0","dep_delay":"+0","subsequent_stops":[{"id":"8501026","name":"Genève-Aéroport","x":497660,"y":120989,"lon":6.111968,"lat":46.232556,"arr":"2021-02-05 19:41:00","arr_delay":"+0"}]},{"time":"2021-02-05 19:39:00","*G":"TGV","type":"express_train","line":"TGV","operator":"SBB","number":"TGV 9777","color":"f00~fff~","type_name":"Railway","terminal":{"id":"8501120","name":"Lausanne","x":537875,"y":152042,"lon":6.629087,"lat":46.516795},"subsequent_stops":[{"id":"8501120","name":"Lausanne","x":537875,"y":152042,"lon":6.629087,"lat":46.516795,"arr":"2021-02-05 20:15:00"}]},{"time":"2021-02-05 19:42:00","*G":"IC","*L":"1","type":"express_train","line":"IC 1","operator":"SBB","number":"IC 735","color":"f00~fff~","type_name":"Railway","terminal":{"id":"8506302","name":"St. Gallen","x":745713,"y":254279,"lon":9.369902,"lat":47.42318},"arr_delay":"+0","dep_delay":"+0","subsequent_stops":[{"id":"8501120","name":"Lausanne","x":537875,"y":152042,"lon":6.629087,"lat":46.516795,"arr":"2021-02-05 20:18:00","dep":"2021-02-05 20:20:00","arr_delay":"+0","dep_delay":"+0"},{"id":"8504100","name":"Fribourg/Freiburg","x":578047,"y":183595,"lon":7.151052,"lat":46.803151,"arr":"2021-02-05 21:03:00","dep":"2021-02-05 21:04:00","arr_delay":"+0","dep_delay":"+1"},{"id":"8507000","name":"Bern","x":600038,"y":199750,"lon":7.439136,"lat":46.948832,"arr":"2021-02-05 21:26:00","dep":"2021-02-05 21:31:00","arr_delay":"+0","dep_delay":"+0"},{"id":"0000132","name":"Bahn-2000-Strecke","x":619000,"y":227300,"lon":7.689367,"lat":47.196371,"arr_delay":"+0","dep_delay":"+0"},{"id":"8503000","name":"Zürich HB","x":683212,"y":248030,"lon":8.540502,"lat":47.377847,"arr":"2021-02-05 22:28:00","dep":"2021-02-05 22:39:00","arr_delay":"+0","dep_delay":"+0"},{"id":"8503006","name":"Zürich Oerlikon","x":683434,"y":251778,"lon":8.54414,"lat":47.411526,"arr":"2021-02-05 22:45:00","dep":"2021-02-05 22:46:00","arr_delay":"+0","dep_delay":"+1"},{"id":"8503016","name":"Zürich Flughafen","x":684750,"y":256117,"lon":8.562398,"lat":47.450379,"arr":"2021-02-05 22:51:00","dep":"2021-02-05 22:53:00","arr_delay":"+1","dep_delay":"+1"},{"id":"8506000","name":"Winterthur","x":696832,"y":261857,"lon":8.723822,"lat":47.500331,"arr":"2021-02-05 23:06:00","dep":"2021-02-05 23:08:00","arr_delay":"+0","dep_delay":"+0"},{"id":"8506206","name":"Wil SG","x":720812,"y":258081,"lon":9.040992,"lat":47.462408,"arr":"2021-02-05 23:25:00","dep":"2021-02-05 23:26:00","arr_delay":"+0","dep_delay":"+0"},{"id":"8506208","name":"Uzwil","x":727659,"y":255337,"lon":9.130995,"lat":47.436442,"arr":"2021-02-05 23:33:00","dep":"2021-02-05 23:34:00","arr_delay":"+0","dep_delay":"+0"},{"id":"8506209","name":"Flawil","x":732146,"y":253072,"lon":9.18979,"lat":47.415189,"arr":"2021-02-05 23:39:00","dep":"2021-02-05 23:39:00","arr_delay":"+0","dep_delay":"+1"},{"id":"8506210","name":"Gossau SG","x":736927,"y":252807,"lon":9.253043,"lat":47.41183,"arr":"2021-02-05 23:44:00","dep":"2021-02-05 23:45:00","arr_delay":"+0","dep_delay":"+0"},{"id":"8506302","name":"St. Gallen","x":745713,"y":254279,"lon":9.369902,"lat":47.42318,"arr":"2021-02-05 23:52:00","arr_delay":"+0"}]},{"time":"2021-02-05 19:45:00","*G":"S","*L":"L4","type":"strain","line":"SL4","operator":"SBB","number":"SL4 23271","color":"039~fff~","type_name":"S-Train","terminal":{"id":"8501023","name":"Coppet","x":503661,"y":130324,"lon":6.187819,"lat":46.317405},"dep_delay":"+0","subsequent_stops":[{"id":"8516283","name":"Genève-Sécheron","x":500154,"y":119824,"lon":6.144542,"lat":46.222452,"arr":"2021-02-05 19:47:00","dep":"2021-02-05 19:47:00","arr_delay":"+0","dep_delay":"+0"},{"id":"8501020","name":"Chambésy","x":500400,"y":121878,"lon":6.147292,"lat":46.240963,"arr":"2021-02-05 19:50:00","dep":"2021-02-05 19:51:00","arr_delay":"+0","dep_delay":"+0"},{"id":"8501011","name":"Les Tuileries","x":500419,"y":122878,"lon":6.147325,"lat":46.24996,"arr":"2021-02-05 19:52:00","dep":"2021-02-05 19:52:00","arr_delay":"+1","dep_delay":"+2"},{"id":"8501021","name":"Genthod-Bellevue","x":500942,"y":123625,"lon":6.153947,"lat":46.256756,"arr":"2021-02-05 19:54:00","dep":"2021-02-05 19:55:00","arr_delay":"+2","dep_delay":"+2"},{"id":"8501012","name":"Creux-de-Genthod","x":501522,"y":124397,"lon":6.161304,"lat":46.263785,"arr":"2021-02-05 19:58:00","dep":"2021-02-05 19:59:00","arr_delay":"+0","dep_delay":"+0"},{"id":"8501022","name":"Versoix","x":501892,"y":126165,"lon":6.165731,"lat":46.279741,"arr":"2021-02-05 20:01:00","dep":"2021-02-05 20:01:00","arr_delay":"+0","dep_delay":"+1"},{"id":"8501013","name":"Pont-Céard","x":501669,"y":127022,"lon":6.162657,"lat":46.287417,"arr":"2021-02-05 20:02:00","dep":"2021-02-05 20:02:00","arr_delay":"+1","dep_delay":"+2"},{"id":"8501014","name":"Mies","x":502073,"y":128248,"lon":6.167641,"lat":46.298503,"arr":"2021-02-05 20:06:00","dep":"2021-02-05 20:07:00","arr_delay":"+0","dep_delay":"+0"},{"id":"8501015","name":"Tannay","x":503127,"y":129249,"lon":6.18111,"lat":46.307659,"arr":"2021-02-05 20:08:00","dep":"2021-02-05 20:08:00","arr_delay":"+0","dep_delay":"+1"},{"id":"8501023","name":"Coppet","x":503661,"y":130324,"lon":6.187819,"lat":46.317405,"arr":"2021-02-05 20:10:00","arr_delay":"+0"}]},{"time":"2021-02-05 19:47:00","*G":"RE","type":"express_train","line":"RE","operator":"SBB","number":"RE 18478","color":"f00~fff~","type_name":"Railway","terminal":{"id":"8774549","name":"Annemasse","x":507201,"y":117144,"lon":6.236394,"lat":46.199355},"arr_delay":"+0","dep_delay":"+0","subsequent_stops":[{"id":"8516155","name":"Lancy-Pont-Rouge","x":498573,"y":115793,"lon":6.124929,"lat":46.18596,"arr":"2021-02-05 19:52:00","dep":"2021-02-05 19:52:00","arr_delay":"+0","dep_delay":"+0"},{"id":"8517142","name":"Lancy-Bachet","x":498892,"y":114497,"lon":6.12934,"lat":46.174351,"arr":"2021-02-05 19:54:00","dep":"2021-02-05 19:55:00","arr_delay":"+0","dep_delay":"+0"},{"id":"8516272","name":"Genève-Champel","x":500789,"y":116451,"lon":6.153486,"lat":46.192208,"arr":"2021-02-05 19:58:00","dep":"2021-02-05 19:58:00","arr_delay":"+0","dep_delay":"+1"},{"id":"8516273","name":"Genève-Eaux-Vives","x":501814,"y":117463,"lon":6.166549,"lat":46.201461,"arr":"2021-02-05 20:01:00","dep":"2021-02-05 20:02:00","arr_delay":"+0","dep_delay":"+0"},{"id":"8516274","name":"Chêne-Bourg","x":504180,"y":116886,"lon":6.197316,"lat":46.196612,"arr":"2021-02-05 20:04:00","dep":"2021-02-05 20:04:00","arr_delay":"+0","dep_delay":"+1"},{"id":"8774549","name":"Annemasse","x":507201,"y":117144,"lon":6.236394,"lat":46.199355,"arr":"2021-02-05 20:10:00","arr_delay":"+0"}]},{"time":"2021-02-05 19:48:00","*G":"S","*L":"L5","type":"strain","line":"SL5","operator":"SBB","number":"SL5 23062","color":"039~fff~","type_name":"S-Train","terminal":{"id":"8501001","name":"La Plaine","x":488912,"y":115153,"lon":5.999977,"lat":46.17868},"dep_delay":"+0","subsequent_stops":[{"id":"8501007","name":"Vernier","x":496242,"y":119699,"lon":6.093877,"lat":46.220736,"arr":"2021-02-05 19:52:00","dep":"2021-02-05 19:53:00","arr_delay":"+0","dep_delay":"+0"},{"id":"8501006","name":"Meyrin","x":494934,"y":119901,"lon":6.076882,"lat":46.22235,"arr":"2021-02-05 19:54:00","dep":"2021-02-05 19:54:00","arr_delay":"+1","dep_delay":"+1"},{"id":"8501000","name":"Zimeysa","x":494090,"y":119794,"lon":6.06597,"lat":46.221256,"arr":"2021-02-05 19:56:00","dep":"2021-02-05 19:56:00","arr_delay":"+1","dep_delay":"+2"},{"id":"8501003","name":"Satigny","x":491891,"y":119053,"lon":6.037647,"lat":46.214241,"arr":"2021-02-05 20:00:00","dep":"2021-02-05 20:00:00","arr_delay":"+0","dep_delay":"+0"},{"id":"8501002","name":"Russin","x":490325,"y":116210,"lon":6.018024,"lat":46.188418,"arr":"2021-02-05 20:03:00","dep":"2021-02-05 20:03:00","arr_delay":"+0","dep_delay":"+1"},{"id":"8501001","name":"La Plaine","x":488912,"y":115153,"lon":5.999977,"lat":46.17868,"arr":"2021-02-05 20:07:00","arr_delay":"+0"}]},{"time":"2021-02-05 19:49:00","*G":"IC","*L":"5","type":"express_train","line":"IC 5","operator":"SBB","number":"IC 530","color":"f00~fff~","type_name":"Railway","terminal":{"id":"8501026","name":"Genève-Aéroport","x":497660,"y":120989,"lon":6.111968,"lat":46.232556},"arr_delay":"+0","dep_delay":"+0","subsequent_stops":[{"id":"8501026","name":"Genève-Aéroport","x":497660,"y":120989,"lon":6.111968,"lat":46.232556,"arr":"2021-02-05 19:56:00","arr_delay":"+0"}]},{"time":"2021-02-05 19:50:00","*G":"RE","type":"express_train","line":"RE","operator":"SBB","number":"RE 18437","color":"f00~fff~","type_name":"Railway","terminal":{"id":"8501120","name":"Lausanne","x":537875,"y":152042,"lon":6.629087,"lat":46.516795},"arr_delay":"+0","dep_delay":"+0","subsequent_stops":[{"id":"8501023","name":"Coppet","x":503661,"y":130324,"lon":6.187819,"lat":46.317405,"arr":"2021-02-05 19:59:00","dep":"2021-02-05 20:00:00","arr_delay":"+0","dep_delay":"+0"},{"id":"8501030","name":"Nyon","x":507483,"y":137716,"lon":6.235963,"lat":46.38443,"arr":"2021-02-05 20:05:00","dep":"2021-02-05 20:06:00","arr_delay":"+0","dep_delay":"+0"},{"id":"8501031","name":"Gland","x":510093,"y":141631,"lon":6.269128,"lat":46.419998,"arr":"2021-02-05 20:09:00","dep":"2021-02-05 20:10:00","arr_delay":"+0","dep_delay":"+0"},{"id":"8501033","name":"Rolle","x":515331,"y":146309,"lon":6.3364,"lat":46.462757,"arr":"2021-02-05 20:14:00","dep":"2021-02-05 20:15:00","arr_delay":"+0","dep_delay":"+0"},{"id":"8501035","name":"Allaman","x":520212,"y":147689,"lon":6.399696,"lat":46.475769,"arr":"2021-02-05 20:18:00","dep":"2021-02-05 20:19:00","arr_delay":"+0","dep_delay":"+0"},{"id":"8501037","name":"Morges","x":527498,"y":151526,"lon":6.493958,"lat":46.511111,"arr":"2021-02-05 20:24:00","dep":"2021-02-05 20:25:00","arr_delay":"+0","dep_delay":"+1"},{"id":"8501118","name":"Renens VD","x":534051,"y":154334,"lon":6.578933,"lat":46.537046,"arr":"2021-02-05 20:31:00","dep":"2021-02-05 20:32:00","arr_delay":"+0","dep_delay":"+0"},{"id":"8501120","name":"Lausanne","x":537875,"y":152042,"lon":6.629087,"lat":46.516795,"arr":"2021-02-05 20:39:00","arr_delay":"+0"}]},{"time":"2021-02-05 19:52:00","*G":"IR","*L":"90","type":"express_train","line":"IR 90","operator":"SBB","number":"IR 1830","color":"f00~fff~","type_name":"Railway","terminal":{"id":"8501026","name":"Genève-Aéroport","x":497660,"y":120989,"lon":6.111968,"lat":46.232556},"arr_delay":"+0","dep_delay":"+0","subsequent_stops":[{"id":"8501026","name":"Genève-Aéroport","x":497660,"y":120989,"lon":6.111968,"lat":46.232556,"arr":"2021-02-05 19:59:00","arr_delay":"+0"}]},{"time":"2021-02-05 19:59:00","*G":"IR","*L":"15","type":"express_train","line":"IR 15","operator":"SBB","number":"IR 2537","color":"f00~fff~","type_name":"Railway","terminal":{"id":"8505000","name":"Luzern","x":666224,"y":211384,"lon":8.310185,"lat":47.050174},"arr_delay":"+0","dep_delay":"+0","subsequent_stops":[{"id":"8501030","name":"Nyon","x":507483,"y":137716,"lon":6.235963,"lat":46.38443,"arr":"2021-02-05 20:13:00","dep":"2021-02-05 20:13:00","arr_delay":"+0","dep_delay":"+1"},{"id":"8501037","name":"Morges","x":527498,"y":151526,"lon":6.493958,"lat":46.511111,"arr":"2021-02-05 20:30:00","dep":"2021-02-05 20:30:00","arr_delay":"+1","dep_delay":"+1"},{"id":"8501120","name":"Lausanne","x":537875,"y":152042,"lon":6.629087,"lat":46.516795,"arr":"2021-02-05 20:42:00","dep":"2021-02-05 20:44:00","arr_delay":"+0","dep_delay":"+0"},{"id":"8504014","name":"Palézieux","x":553919,"y":154785,"lon":6.837873,"lat":46.542766,"arr":"2021-02-05 20:59:00","dep":"2021-02-05 21:00:00","arr_delay":"+0","dep_delay":"+1"},{"id":"8504023","name":"Romont FR","x":559703,"y":171502,"lon":6.911814,"lat":46.693515,"arr":"2021-02-05 21:15:00","dep":"2021-02-05 21:16:00","arr_delay":"+0","dep_delay":"+0"},{"id":"8504100","name":"Fribourg/Freiburg","x":578047,"y":183595,"lon":7.151052,"lat":46.803151,"arr":"2021-02-05 21:33:00","dep":"2021-02-05 21:34:00","arr_delay":"+0","dep_delay":"+1"},{"id":"8507000","name":"Bern","x":600038,"y":199750,"lon":7.439136,"lat":46.948832,"arr":"2021-02-05 21:56:00","dep":"2021-02-05 22:00:00","arr_delay":"+0","dep_delay":"+0"},{"id":"0000132","name":"Bahn-2000-Strecke","x":619000,"y":227300,"lon":7.689367,"lat":47.196371,"arr_delay":"+0","dep_delay":"+0"},{"id":"8502001","name":"Zofingen","x":638164,"y":237585,"lon":7.943128,"lat":47.288051,"arr":"2021-02-05 22:28:00","dep":"2021-02-05 22:29:00","arr_delay":"+0","dep_delay":"+0"},{"id":"8502007","name":"Sursee","x":649981,"y":224636,"lon":8.097894,"lat":47.170794,"arr":"2021-02-05 22:41:00","dep":"2021-02-05 22:42:00","arr_delay":"+0","dep_delay":"+1"},{"id":"8505000","name":"Luzern","x":666224,"y":211384,"lon":8.310185,"lat":47.050174,"arr":"2021-02-05 23:01:00","arr_delay":"+0"}]},{"time":"2021-02-05 20:00:00","*G":"S","*L":"L4","type":"strain","line":"SL4","operator":"SBB","number":"SL4 23173","color":"039~fff~","type_name":"S-Train","terminal":{"id":"8501023","name":"Coppet","x":503661,"y":130324,"lon":6.187819,"lat":46.317405},"arr_delay":"+0","dep_delay":"+0","subsequent_stops":[{"id":"8516283","name":"Genève-Sécheron","x":500154,"y":119824,"lon":6.144542,"lat":46.222452,"arr":"2021-02-05 20:02:00","dep":"2021-02-05 20:02:00","arr_delay":"+0","dep_delay":"+1"},{"id":"8501020","name":"Chambésy","x":500400,"y":121878,"lon":6.147292,"lat":46.240963,"arr":"2021-02-05 20:05:00","dep":"2021-02-05 20:06:00","arr_delay":"+0","dep_delay":"+0"},{"id":"8501011","name":"Les Tuileries","x":500419,"y":122878,"lon":6.147325,"lat":46.24996,"arr":"2021-02-05 20:07:00","dep":"2021-02-05 20:07:00","arr_delay":"+1","dep_delay":"+2"},{"id":"8501021","name":"Genthod-Bellevue","x":500942,"y":123625,"lon":6.153947,"lat":46.256756,"arr":"2021-02-05 20:09:00","dep":"2021-02-05 20:10:00","arr_delay":"+2","dep_delay":"+2"},{"id":"8501012","name":"Creux-de-Genthod","x":501522,"y":124397,"lon":6.161304,"lat":46.263785,"arr":"2021-02-05 20:13:00","dep":"2021-02-05 20:14:00","arr_delay":"+0","dep_delay":"+0"},{"id":"8501022","name":"Versoix","x":501892,"y":126165,"lon":6.165731,"lat":46.279741,"arr":"2021-02-05 20:16:00","dep":"2021-02-05 20:16:00","arr_delay":"+0","dep_delay":"+1"},{"id":"8501013","name":"Pont-Céard","x":501669,"y":127022,"lon":6.162657,"lat":46.287417,"arr":"2021-02-05 20:17:00","dep":"2021-02-05 20:17:00","arr_delay":"+1","dep_delay":"+2"},{"id":"8501014","name":"Mies","x":502073,"y":128248,"lon":6.167641,"lat":46.298503,"arr":"2021-02-05 20:21:00","dep":"2021-02-05 20:22:00","arr_delay":"+0","dep_delay":"+0"},{"id":"8501015","name":"Tannay","x":503127,"y":129249,"lon":6.18111,"lat":46.307659,"arr":"2021-02-05 20:23:00","dep":"2021-02-05 20:23:00","arr_delay":"+0","dep_delay":"+1"},{"id":"8501023","name":"Coppet","x":503661,"y":130324,"lon":6.187819,"lat":46.317405,"arr":"2021-02-05 20:25:00","arr_delay":"+0"}]},{"time":"2021-02-05 20:02:00","*G":"S","*L":"L4","type":"strain","line":"SL4","operator":"SBB","number":"SL4 23174","color":"039~fff~","type_name":"S-Train","terminal":{"id":"8774549","name":"Annemasse","x":507201,"y":117144,"lon":6.236394,"lat":46.199355},"arr_delay":"+0","dep_delay":"+0","subsequent_stops":[{"id":"8516155","name":"Lancy-Pont-Rouge","x":498573,"y":115793,"lon":6.124929,"lat":46.18596,"arr":"2021-02-05 20:07:00","dep":"2021-02-05 20:07:00","arr_delay":"+0","dep_delay":"+0"},{"id":"8517142","name":"Lancy-Bachet","x":498892,"y":114497,"lon":6.12934,"lat":46.174351,"arr":"2021-02-05 20:09:00","dep":"2021-02-05 20:10:00","arr_delay":"+0","dep_delay":"+0"},{"id":"8516272","name":"Genève-Champel","x":500789,"y":116451,"lon":6.153486,"lat":46.192208,"arr":"2021-02-05 20:13:00","dep":"2021-02-05 20:13:00","arr_delay":"+0","dep_delay":"+1"},{"id":"8516273","name":"Genève-Eaux-Vives","x":501814,"y":117463,"lon":6.166549,"lat":46.201461,"arr":"2021-02-05 20:16:00","dep":"2021-02-05 20:17:00","arr_delay":"+0","dep_delay":"+0"},{"id":"8516274","name":"Chêne-Bourg","x":504180,"y":116886,"lon":6.197316,"lat":46.196612,"arr":"2021-02-05 20:19:00","dep":"2021-02-05 20:19:00","arr_delay":"+0","dep_delay":"+1"},{"id":"8774549","name":"Annemasse","x":507201,"y":117144,"lon":6.236394,"lat":46.199355,"arr":"2021-02-05 20:25:00","arr_delay":"+0"}]},{"time":"2021-02-05 20:04:00","*G":"IR","*L":"15","type":"express_train","line":"IR 15","operator":"SBB","number":"IR 2530","color":"f00~fff~","type_name":"Railway","terminal":{"id":"8501026","name":"Genève-Aéroport","x":497660,"y":120989,"lon":6.111968,"lat":46.232556},"arr_delay":"+3","dep_delay":"+2","subsequent_stops":[{"id":"8501026","name":"Genève-Aéroport","x":497660,"y":120989,"lon":6.111968,"lat":46.232556,"arr":"2021-02-05 20:11:00","arr_delay":"+0"}]},{"time":"2021-02-05 20:11:00","*G":"IR","*L":"90","type":"express_train","line":"IR 90","operator":"SBB","number":"IR 1835","color":"f00~fff~","type_name":"Railway","terminal":{"id":"8501609","name":"Brig","x":642319,"y":129928,"lon":7.988089,"lat":46.319416},"arr_delay":"+0","dep_delay":"+0","subsequent_stops":[{"id":"8501120","name":"Lausanne","x":537875,"y":152042,"lon":6.629087,"lat":46.516795,"arr":"2021-02-05 20:48:00","dep":"2021-02-05 20:50:00","arr_delay":"+0","dep_delay":"+0"},{"id":"8501200","name":"Vevey","x":554279,"y":145915,"lon":6.843443,"lat":46.463002,"arr":"2021-02-05 21:03:00","dep":"2021-02-05 21:05:00","arr_delay":"+0","dep_delay":"+1"},{"id":"8501300","name":"Montreux","x":559405,"y":142864,"lon":6.910438,"lat":46.435887,"arr":"2021-02-05 21:11:00","dep":"2021-02-05 21:12:00","arr_delay":"+1","dep_delay":"+1"},{"id":"8501400","name":"Aigle","x":563416,"y":129606,"lon":6.96367,"lat":46.316856,"arr":"2021-02-05 21:21:00","dep":"2021-02-05 21:22:00","arr_delay":"+1","dep_delay":"+1"},{"id":"8501403","name":"St-Maurice","x":566309,"y":118419,"lon":7.002036,"lat":46.216375,"arr":"2021-02-05 21:31:00","dep":"2021-02-05 21:32:00","arr_delay":"+1","dep_delay":"+1"},{"id":"8501500","name":"Martigny","x":572200,"y":106100,"lon":7.079108,"lat":46.105829,"arr":"2021-02-05 21:42:00","dep":"2021-02-05 21:43:00","arr_delay":"+1","dep_delay":"+1"},{"id":"8501506","name":"Sion","x":593870,"y":119571,"lon":7.359183,"lat":46.227553,"arr":"2021-02-05 21:56:00","dep":"2021-02-05 21:57:00","arr_delay":"+1","dep_delay":"+1"},{"id":"8501509","name":"Sierre/Siders","x":607258,"y":126750,"lon":7.532824,"lat":46.292121,"arr":"2021-02-05 22:07:00","dep":"2021-02-05 22:08:00","arr_delay":"+0","dep_delay":"+0"},{"id":"8501605","name":"Visp","x":634122,"y":127053,"lon":7.881455,"lat":46.29402,"arr":"2021-02-05 22:23:00","dep":"2021-02-05 22:25:00","arr_delay":"+0","dep_delay":"+0"},{"id":"8501609","name":"Brig","x":642319,"y":129928,"lon":7.988089,"lat":46.319416,"arr":"2021-02-05 22:32:00","arr_delay":"+0"}]},{"time":"2021-02-05 20:15:00","*G":"IC","*L":"5","type":"express_train","line":"IC 5","operator":"SBB","number":"IC 539","color":"f00~fff~","type_name":"Railway","terminal":{"id":"8503000","name":"Zürich HB","x":683212,"y":248030,"lon":8.540502,"lat":47.377847},"arr_delay":"+0","dep_delay":"+0","subsequent_stops":[{"id":"8501037","name":"Morges","x":527498,"y":151526,"lon":6.493958,"lat":46.511111,"arr":"2021-02-05 20:41:00","dep":"2021-02-05 20:42:00","arr_delay":"+0","dep_delay":"+0"},{"id":"8504200","name":"Yverdon-les-Bains","x":539084,"y":181463,"lon":6.640943,"lat":46.78155,"arr":"2021-02-05 21:05:00","dep":"2021-02-05 21:06:00","arr_delay":"+0","dep_delay":"+1"},{"id":"8504221","name":"Neuchâtel","x":561747,"y":205197,"lon":6.935713,"lat":46.996727,"arr":"2021-02-05 21:24:00","dep":"2021-02-05 21:26:00","arr_delay":"+1","dep_delay":"+1"},{"id":"8504300","name":"Biel/Bienne","x":585151,"y":220232,"lon":7.242918,"lat":47.132902,"arr":"2021-02-05 21:43:00","dep":"2021-02-05 21:46:00","arr_delay":"+0","dep_delay":"+0"},{"id":"8500207","name":"Solothurn","x":607884,"y":228144,"lon":7.542692,"lat":47.204189,"arr":"2021-02-05 21:59:00","dep":"2021-02-05 22:01:00","arr_delay":"+0","dep_delay":"+0"},{"id":"0000132","name":"Bahn-2000-Strecke","x":619000,"y":227300,"lon":7.689367,"lat":47.196371,"arr_delay":"+0","dep_delay":"+0"},{"id":"8500218","name":"Olten","x":635442,"y":244671,"lon":7.907707,"lat":47.351936,"arr":"2021-02-05 22:18:00","dep":"2021-02-05 22:20:00","arr_delay":"+0","dep_delay":"+0"},{"id":"8502113","name":"Aarau","x":646256,"y":249129,"lon":8.051284,"lat":47.391361,"arr":"2021-02-05 22:29:00","dep":"2021-02-05 22:31:00","arr_delay":"+0","dep_delay":"+0"},{"id":"8503000","name":"Zürich HB","x":683212,"y":248030,"lon":8.540502,"lat":47.377847,"arr":"2021-02-05 22:56:00","arr_delay":"+0"}]},{"time":"2021-02-05 20:15:00","*G":"S","*L":"L2","type":"strain","line":"SL2","operator":"SBB","number":"SL2 23437","color":"039~fff~","type_name":"S-Train","terminal":{"id":"8501023","name":"Coppet","x":503661,"y":130324,"lon":6.187819,"lat":46.317405},"dep_delay":"+0","subsequent_stops":[{"id":"8516283","name":"Genève-Sécheron","x":500154,"y":119824,"lon":6.144542,"lat":46.222452,"arr":"2021-02-05 20:17:00","dep":"2021-02-05 20:17:00","arr_delay":"+0","dep_delay":"+0"},{"id":"8501020","name":"Chambésy","x":500400,"y":121878,"lon":6.147292,"lat":46.240963,"arr":"2021-02-05 20:20:00","dep":"2021-02-05 20:21:00","arr_delay":"+0","dep_delay":"+0"},{"id":"8501011","name":"Les Tuileries","x":500419,"y":122878,"lon":6.147325,"lat":46.24996,"arr":"2021-02-05 20:22:00","dep":"2021-02-05 20:22:00","arr_delay":"+1","dep_delay":"+2"},{"id":"8501021","name":"Genthod-Bellevue","x":500942,"y":123625,"lon":6.153947,"lat":46.256756,"arr":"2021-02-05 20:24:00","dep":"2021-02-05 20:25:00","arr_delay":"+2","dep_delay":"+2"},{"id":"8501012","name":"Creux-de-Genthod","x":501522,"y":124397,"lon":6.161304,"lat":46.263785,"arr":"2021-02-05 20:28:00","dep":"2021-02-05 20:29:00","arr_delay":"+0","dep_delay":"+0"},{"id":"8501022","name":"Versoix","x":501892,"y":126165,"lon":6.165731,"lat":46.279741,"arr":"2021-02-05 20:31:00","dep":"2021-02-05 20:31:00","arr_delay":"+0","dep_delay":"+1"},{"id":"8501013","name":"Pont-Céard","x":501669,"y":127022,"lon":6.162657,"lat":46.287417,"arr":"2021-02-05 20:32:00","dep":"2021-02-05 20:32:00","arr_delay":"+1","dep_delay":"+2"},{"id":"8501014","name":"Mies","x":502073,"y":128248,"lon":6.167641,"lat":46.298503,"arr":"2021-02-05 20:36:00","dep":"2021-02-05 20:37:00","arr_delay":"+0","dep_delay":"+0"},{"id":"8501015","name":"Tannay","x":503127,"y":129249,"lon":6.18111,"lat":46.307659,"arr":"2021-02-05 20:38:00","dep":"2021-02-05 20:38:00","arr_delay":"+0","dep_delay":"+1"},{"id":"8501023","name":"Coppet","x":503661,"y":130324,"lon":6.187819,"lat":46.317405,"arr":"2021-02-05 20:40:00","arr_delay":"+0"}]}],"request":"stationboard","eof":1}